[
    {
        "title": "Tech Outside Plant Compliance",
        "description": "Physical labor to lay out wires",
        "experience": "Entry",
        "industry": "Engineering",
        "minSalary": "45000",
        "maxSalary": "50000",
        "employer": "Comcast",
        "city": "Oakland",
        "state": "CA",
        "isRemote": "On-site",
        "hours": "Full-time",
        "poster_id": "1"
    },
    {
        "title": "Site Technician",
        "description": "A developer to maintain e-commerce",
        "experience": "Associate",
        "industry": "Software Development",
        "minSalary": "85000",
        "maxSalary": "95000",
        "employer": "Amazon Web Services",
        "city": "Seattle",
        "state": "WA",
        "isRemote": "Remote",
        "hours": "Full-time",
        "poster_id": "2"
    },
    {
        "title": "Website Admin",
        "description": "A developer to maintain e-commerce",
        "experience": "Associate",
        "industry": "Software Development",
        "minSalary": "185000",
        "maxSalary": "195000",
        "employer": "Amazon Web Services",
        "city": "Seattle",
        "state": "WA",
        "isRemote": "Remote",
        "hours": "Full-time",
        "poster_id": "3"
    },
    {
        "title": "Website admin",
        "description": "A developer to maintain e-commerce",
        "experience": "Associate",
        "industry": "Software Development",
        "minSalary": "115000",
        "maxSalary": "135000",
        "employer": "Google",
        "city": "Cupertino",
        "state": "CA",
        "isRemote": "Remote",
        "hours": "Full-time",
        "poster_id": "4"
    },
    {
        "title": "Software Developrt",
        "description": "A developer to maintain e-commerce",
        "experience": "Associate",
        "industry": "Software Development",
        "minSalary": "85000",
        "maxSalary": "95000",
        "employer": "Amazon Web Services",
        "city": "Seattle",
        "state": "WA",
        "isRemote": "Remote",
        "hours": "Full-time",
        "poster_id": "5"
    },
    {
        "title": "Software Developr",
        "description": "A developer to maintain e-commerce",
        "experience": "Associate",
        "industry": "Software Development",
        "minSalary": "85000",
        "maxSalary": "95000",
        "employer": "Google",
        "city": "Cupertino",
        "state": "CA",
        "isRemote": "Remote",
        "hours": "Full-time",
        "poster_id": "6"
    },
    {
        "title": "Software Developr",
        "description": "A developer to maintain e-commerce",
        "experience": "Associate",
        "industry": "Software Development",
        "minSalary": "85000",
        "maxSalary": "95000",
        "employer": "Facebook",
        "city": "Sunnyvale",
        "state": "CA",
        "isRemote": "Remote",
        "hours": "Full-time",
        "poster_id": "7"
    },
    {
        "title": "Data Engineer",
        "description": "A developer to maintain e-commerce",
        "experience": "Associate",
        "industry": "Software Development",
        "minSalary": "85000",
        "maxSalary": "95000",
        "employer": "Amazon Web Services",
        "city": "Seattle",
        "state": "WA",
        "isRemote": "Remote",
        "hours": "Full-time",
        "poster_id": "8"
    },
    {
        "title": "Data Engineer",
        "description": "A developer to maintain e-commerce",
        "experience": "Associate",
        "industry": "Software Development",
        "minSalary": "85000",
        "maxSalary": "95000",
        "employer": "Facebook",
        "city": "Sunnyvale",
        "state": "CA",
        "isRemote": "Remote",
        "hours": "Full-time",
        "poster_id": "9"
    },
    {
        "title": "Data Engineer",
        "description": "A developer to maintain e-commerce",
        "experience": "Associate",
        "industry": "Software Development",
        "minSalary": "85000",
        "maxSalary": "95000",
        "employer": "Google",
        "city": "Cupertino",
        "state": "CA",,
        "isRemote": "Remote",
        "hours": "Full-time",
        "poster_id": "10"
    },
    {
        "title": "Front End Developer",
        "description": "A developer to maintain e-commerce",
        "experience": "Associate",
        "industry": "Software Development",
        "minSalary": "85000",
        "maxSalary": "95000",
        "employer": "Amazon Web Services",
        "city": "Seattle",
        "state": "WA",
        "isRemote": "Remote",
        "hours": "Full-time",
        "poster_id": "11"
    },
    {
        "title": "Front End Developer",
        "description": "A developer to maintain e-commerce",
        "experience": "Associate",
        "industry": "Software Development",
        "minSalary": "85000",
        "maxSalary": "95000",
        "employer": "Microsoft",
        "city": "Seattle",
        "state": "WA",
        "isRemote": "Remote",
        "hours": "Full-time",
        "poster_id": "13"
    },
    {
        "title": "Front End Developer",
        "description": "A developer to maintain e-commerce",
        "experience": "Associate",
        "industry": "Software Development",
        "minSalary": "85000",
        "maxSalary": "95000",
        "employer": "Facebook",
        "city": "Sunnyvale",
        "state": "CA",
        "isRemote": "Remote",
        "hours": "Full-time",
        "poster_id": "14"
    },
    {
        "title": "Front End Developer",
        "description": "A developer to maintain e-commerce",
        "experience": "Associate",
        "industry": "Software Development",
        "minSalary": "85000",
        "maxSalary": "95000",
        "employer": "Google",
        "city": "Cupertino",
        "state": "CA",
        "isRemote": "Remote",
        "hours": "Full-time",
        "poster_id": "15"
    },

]